{"12233":{"name":"G\u0142og\u00f3w","lat":51.664459,"lon":16.081129},"19372":{"name":"Lubin","lat":51.4042025,"lon":16.1938917},"35641":{"name":"Wa\u0142brzych","lat":50.7840092,"lon":16.2843553},"15483":{"name":"Jelenia G\u00f3ra","lat":50.9044171,"lon":15.7193616},"PLXX0015":{"name":"Malczyce","lat":51.2211294,"lon":16.4946736},"PLXX0029":{"name":"Wroc\u0142aw","lat":51.1078852,"lon":17.0385376},"PLXX0047":{"name":"K\u0142odzko","lat":50.4345636,"lon":16.6613941},"PLXX0016":{"name":"Ole\u015bnica","lat":51.2134346,"lon":17.3898504},"PLXX0013":{"name":"Legnica","lat":51.2070067,"lon":16.1553231},"32350":{"name":"\u015awidnica","lat":50.8498434,"lon":16.475679},"4961":{"name":"Brodnica","lat":53.2599703,"lon":19.3956618},"12905":{"name":"Grudzi\u0105dz","lat":53.4837486,"lon":18.753565},"PLXX0036":{"name":"Toru\u0144","lat":53.0137902,"lon":18.5984437},"5404":{"name":"Bydgoszcz","lat":53.1234804,"lon":18.0084378},"14951":{"name":"Inowroc\u0142aw","lat":52.7993317,"lon":18.2562032},"36725":{"name":"W\u0142oc\u0142awek","lat":52.6483303,"lon":19.0677357},"9506888":{"name":"Be\u0142chat\u00f3w","lat":51.3687535,"lon":19.3564248},"24939":{"name":"Pabianice","lat":51.6567303,"lon":19.35776},"33609":{"name":"Tomasz\u00f3w Mazowiecki","lat":51.5311945,"lon":20.0086471},"17551":{"name":"Kutno","lat":52.230618,"lon":19.364278},"26033":{"name":"Piotrk\u00f3w Trybunalski","lat":51.4051721,"lon":19.7030244},"9464877":{"name":"Wielu\u0144","lat":51.2186,"lon":18.56892},"PLXX0014":{"name":"\u0141\u00f3d\u017a","lat":51.7592485,"lon":19.4559833},"27198":{"name":"Radomsko","lat":51.0668544,"lon":19.4449387},"37500":{"name":"Zdu\u0144ska Wola","lat":51.5990328,"lon":18.9393251},"19336":{"name":"\u0141owicz","lat":52.1067916,"lon":19.9453744},"30827":{"name":"Sieradz","lat":51.5956014,"lon":18.7302994},"24498":{"name":"Opoczno","lat":51.3753379,"lon":20.2787631},"31062":{"name":"Skierniewice","lat":51.9547169,"lon":20.1583303},"3841":{"name":"Bia\u0142a Podlaska","lat":52.0387126,"lon":23.1445026},"17312":{"name":"Kra\u015bnik","lat":50.9232831,"lon":22.226957},"9483704":{"name":"Mi\u0119dzyrzec Podlaski","lat":51.9853496,"lon":22.7848432},"3947":{"name":"Bi\u0142goraj","lat":50.54099,"lon":22.72198},"PLXX0049":{"name":"Lublin","lat":51.2464536,"lon":22.5684463},"26888":{"name":"Pu\u0142awy","lat":51.4164431,"lon":21.969309},"6723":{"name":"Che\u0142m","lat":51.1431232,"lon":23.4711986},"19448":{"name":"\u0141uk\u00f3w","lat":51.927158,"lon":22.3830241},"PLXX0048":{"name":"Zamo\u015b\u0107","lat":50.7230879,"lon":23.2519686},"PLXX0008":{"name":"Gorz\u00f3w Wielkopolski","lat":52.7325285,"lon":15.2369305},"9461240":{"name":"\u017bary","lat":51.6420121,"lon":15.1369992},"PLXX0043":{"name":"Zielona G\u00f3ra","lat":51.9356214,"lon":15.5061862},"PLXX0012":{"name":"Krak\u00f3w","lat":50.0646501,"lon":19.9449799},"23907":{"name":"Nowy S\u0105cz","lat":49.6174535,"lon":20.7153326},"PLXX0026":{"name":"Tarn\u00f3w","lat":50.0121011,"lon":20.9858407},"7188":{"name":"Ciechan\u00f3w","lat":52.8814838,"lon":20.6197948},"24736":{"name":"Ostr\u00f3w Mazowiecka","lat":52.8024372,"lon":21.8950416},"PLXX0042":{"name":"Siedlce","lat":52.1676031,"lon":22.2901645},"17290":{"name":"Kozienice","lat":51.5855328,"lon":21.5511768},"PLXX0017":{"name":"Otwock","lat":52.1053186,"lon":21.2616248},"31205":{"name":"Sochaczew","lat":52.2293372,"lon":20.238359},"21423":{"name":"Mi\u0144sk Mazowiecki","lat":52.1792836,"lon":21.5721057},"PLXX0018":{"name":"P\u0142ock","lat":52.5463446,"lon":19.7065364},"PLXX0028":{"name":"Warszawa","lat":52.2296756,"lon":21.0122287},"PLXX0037":{"name":"M\u0142awa","lat":53.1122632,"lon":20.3837208},"PLXX0020":{"name":"Pruszk\u00f3w","lat":52.1704725,"lon":20.8118862},"24731":{"name":"Ostro\u0142\u0119ka","lat":53.0876544,"lon":21.5592554},"27196":{"name":"Radom","lat":51.4027236,"lon":21.1471333},"PLXX0001":{"name":"Brzeg","lat":50.8608509,"lon":17.4668311},"24006":{"name":"Nysa","lat":50.4822855,"lon":17.3295861},"24500":{"name":"Opole","lat":50.6751067,"lon":17.9212976},"9500886":{"name":"D\u0119bica","lat":50.0516417,"lon":21.4116964},"21249":{"name":"Mielec","lat":50.287063,"lon":21.4238101},"29584":{"name":"Sanok","lat":49.5550187,"lon":22.2060658},"15425":{"name":"Jaros\u0142aw","lat":50.01612,"lon":22.67775},"PLXX0050":{"name":"Przemy\u015bl","lat":49.7838623,"lon":22.7677908},"9470316":{"name":"Stalowa Wola","lat":50.5826005,"lon":22.053586},"15431":{"name":"Jas\u0142o","lat":49.7445663,"lon":21.4722875},"28470":{"name":"Rzesz\u00f3w","lat":50.0409469,"lon":21.9992806},"9467341":{"name":"Tarnobrzeg","lat":50.5729079,"lon":21.6790698},"2321":{"name":"August\u00f3w","lat":53.8434431,"lon":22.9796023},"12469":{"name":"Grajewo","lat":53.6471559,"lon":22.455217},"30824":{"name":"Siemiatycze","lat":52.42732,"lon":22.86373},"PLXX0038":{"name":"Bia\u0142ystok","lat":53.1324886,"lon":23.1688403},"9496104":{"name":"Hajn\u00f3wka","lat":52.74514,"lon":23.58165},"PLXX0034":{"name":"Suwa\u0142ki","lat":54.1115218,"lon":22.9307881},"3865":{"name":"Bielsk Podlaski","lat":52.7650576,"lon":23.1867524},"19119":{"name":"\u0141om\u017ca","lat":53.1781197,"lon":22.0590321},"37439":{"name":"Zambr\u00f3w","lat":52.9849941,"lon":22.2413857},"PLXX0035":{"name":"Chojnice","lat":53.6944002,"lon":17.5569252},"17218":{"name":"Ko\u015bcierzyna","lat":54.1222457,"lon":17.9812605},"31135":{"name":"S\u0142upsk","lat":54.464148,"lon":17.0284824},"PLXX0005":{"name":"Gda\u0144sk","lat":54.3520252,"lon":18.6466384},"9487877":{"name":"Kwidzyn","lat":53.7263529,"lon":18.9323043},"PLXX0053":{"name":"Sopot","lat":54.441581,"lon":18.5600956},"PLXX0006":{"name":"Gdynia","lat":54.5188898,"lon":18.5305409},"PLXX0032":{"name":"\u0141eba","lat":54.760117,"lon":17.5563117},"31788":{"name":"Starogard Gda\u0144ski","lat":53.965614,"lon":18.5162736},"PLXX0033":{"name":"Hel","lat":54.6083804,"lon":18.8007998},"18311":{"name":"L\u0119bork","lat":54.544642,"lon":17.7532511},"41748":{"name":"Bielsko-Bia\u0142a","lat":49.8223768,"lon":19.0583845},"12230":{"name":"Gliwice","lat":50.2944923,"lon":18.6713802},"PLXX0022":{"name":"Sosnowiec","lat":50.2862638,"lon":19.1040791},"5417":{"name":"Bytom","lat":50.3483816,"lon":18.9157175},"PLXX0010":{"name":"Katowice","lat":50.2648919,"lon":19.0237815},"PLXX0027":{"name":"Tychy","lat":50.1218007,"lon":19.0200022},"PLXX0002":{"name":"Cz\u0119stochowa","lat":50.8118195,"lon":19.1203094},"PLXX0021":{"name":"Rybnik","lat":50.1021742,"lon":18.5462847},"PLXX0030":{"name":"Zabrze","lat":50.3249278,"lon":18.7857186},"9503693":{"name":"Busko-Zdr\u00f3j","lat":50.470362,"lon":20.7191757},"17160":{"name":"Ko\u0144skie","lat":51.1914693,"lon":20.4068498},"9471807":{"name":"Skar\u017cysko-Kamienna","lat":51.114294,"lon":20.8477827},"PLXX0011":{"name":"Kielce","lat":50.8660773,"lon":20.6285677},"24738":{"name":"Ostrowiec \u015awi\u0119tokrzyski","lat":50.9295234,"lon":21.3851915},"9470201":{"name":"Starachowice","lat":51.0368289,"lon":21.0709769},"9499570":{"name":"Dzia\u0142dowo","lat":53.2356765,"lon":20.1799787},"12144":{"name":"Gi\u017cycko","lat":54.036405,"lon":21.7667341},"24386":{"name":"Olsztyn","lat":53.778422,"lon":20.4801193},"PLXX0004":{"name":"Elbl\u0105g","lat":54.1560613,"lon":19.4044897},"14778":{"name":"I\u0142awa","lat":53.5959811,"lon":19.5684104},"24728":{"name":"Ostr\u00f3da","lat":53.6963007,"lon":19.9647952},"10118":{"name":"E\u0142k","lat":53.8280529,"lon":22.3646629},"PLXX0055":{"name":"K\u0119trzyn","lat":54.07657,"lon":21.37504},"32418":{"name":"Szczytno","lat":53.56354,"lon":20.99519},"12252":{"name":"Gniezno","lat":52.5349253,"lon":17.5826575},"17150":{"name":"Konin","lat":52.2230334,"lon":18.2510729},"25926":{"name":"Pi\u0142a","lat":53.1509671,"lon":16.7382266},"15424":{"name":"Jarocin","lat":51.9724492,"lon":17.5019414},"17387":{"name":"Krotoszyn","lat":51.6965283,"lon":17.4359425},"PLXX0040":{"name":"Pozna\u0144","lat":52.406374,"lon":16.9251681},"PLXX0009":{"name":"Kalisz","lat":51.7672799,"lon":18.0853462},"18496":{"name":"Leszno","lat":51.8419861,"lon":16.5937545},"9466429":{"name":"Turek","lat":52.0145541,"lon":18.5009145},"17090":{"error":"crap"},"24737":{"name":"Ostr\u00f3w Wielkopolski","lat":51.6549856,"lon":17.8068258},"36870":{"name":"Wrze\u015bnia","lat":52.32382,"lon":17.56654},"PLXX0007":{"name":"Goleni\u00f3w","lat":53.56382,"lon":14.82843},"PLXX0019":{"name":"Police","lat":53.5520416,"lon":14.5720608},"PLXX0025":{"name":"Szczecin","lat":53.4285438,"lon":14.5528116},"PLXX0054":{"name":"Ko\u0142obrzeg","lat":54.1759173,"lon":15.5832667},"PLXX0023":{"name":"Stargard Szczeci\u0144ski","lat":53.3364746,"lon":15.0503771},"9468116":{"name":"Szczecinek","lat":53.7100713,"lon":16.6993602},"PLXX0031":{"name":"Koszalin","lat":54.1943219,"lon":16.1714908},"PLXX0024":{"name":"\u015awinouj\u015bcie","lat":53.9100327,"lon":14.2475775}}